Elapsed,Date,Time,Pitch,Roll,Yaw,Latitude,Longitude,Altitude,Velocity,RTK Status,Latitude RTK,Longitude RTK,Altitude RTK,AIR:Speed,AIR:Direction,ALT:Altitude,ALT:Filtered Altitude
159082,2023/10/24,09:55:15.336,0.55,1.04,127.13,56.86322147,24.11177270,-0.00,0.00,ON,56.86322192,24.11177279,32.95,0.30,155.00,0.12,0.12
159182,2023/10/24,09:55:15.436,0.55,1.03,127.12,56.86322148,24.11177270,-0.00,0.01,ON,56.86322192,24.11177279,32.95,0.30,150.00,0.12,0.12
159282,2023/10/24,09:55:15.536,0.55,1.04,127.13,56.86322148,24.11177270,-0.00,0.00,ON,56.86322190,24.11177280,32.95,0.40,144.00,0.12,0.12
159382,2023/10/24,09:55:15.636,0.55,1.04,127.15,56.86322149,24.11177270,-0.00,0.00,ON,56.86322190,24.11177280,32.95,0.40,143.00,0.12,0.12
159482,2023/10/24,09:55:15.736,0.56,1.03,127.14,56.86322149,24.11177270,-0.00,0.01,ON,56.86322188,24.11177281,32.95,0.40,141.00,0.15,0.15
159582,2023/10/24,09:55:15.836,0.56,1.03,127.17,56.86322149,24.11177271,-0.00,0.01,ON,56.86322188,24.11177281,32.95,0.40,137.00,0.14,0.14
159682,2023/10/24,09:55:15.935,0.57,1.04,127.08,56.86322148,24.11177271,-0.00,0.01,ON,56.86322192,24.11177282,32.94,0.40,135.00,0.16,0.16
159782,2023/10/24,09:55:16.035,0.56,0.91,127.22,56.86322147,24.11177272,-0.00,0.01,ON,56.86322191,24.11177282,32.94,0.40,135.00,0.14,0.14
159882,2023/10/24,09:55:16.135,0.57,1.06,127.43,56.86322146,24.11177272,-0.00,0.01,ON,56.86322188,24.11177282,32.95,0.40,135.00,0.14,0.14
159982,2023/10/24,09:55:16.235,0.55,1.00,127.37,56.86322146,24.11177274,-0.00,0.02,ON,56.86322189,24.11177282,32.95,0.40,137.00,0.13,0.13
160082,2023/10/24,09:55:16.335,0.54,0.93,127.21,56.86322146,24.11177274,-0.00,0.01,ON,56.86322196,24.11177281,32.94,0.40,141.00,0.13,0.13
160182,2023/10/24,09:55:16.435,0.64,1.10,127.14,56.86322146,24.11177273,-0.00,0.01,ON,56.86322196,24.11177281,32.94,0.40,145.00,0.13,0.13
160282,2023/10/24,09:55:16.535,0.64,0.97,127.34,56.86322146,24.11177275,-0.00,0.02,ON,56.86322188,24.11177289,32.94,0.60,139.00,0.13,0.13
160382,2023/10/24,09:55:16.635,0.58,1.06,127.32,56.86322148,24.11177273,-0.00,0.03,ON,56.86322189,24.11177289,32.94,0.80,145.00,0.13,0.13
160482,2023/10/24,09:55:16.735,0.57,1.00,127.32,56.86322148,24.11177274,-0.00,0.02,ON,56.86322190,24.11177290,32.94,1.10,152.00,0.14,0.14
160582,2023/10/24,09:55:16.835,0.58,0.97,127.32,56.86322146,24.11177276,0.00,0.02,ON,56.86322190,24.11177290,32.94,1.30,155.00,0.13,0.13
160682,2023/10/24,09:55:16.934,0.60,0.97,127.34,56.86322144,24.11177279,0.00,0.02,ON,56.86322189,24.11177289,32.94,1.30,163.00,0.14,0.14
160782,2023/10/24,09:55:17.034,0.59,0.94,127.30,56.86322143,24.11177279,0.00,0.02,ON,56.86322189,24.11177289,32.94,1.40,163.00,0.14,0.14
160882,2023/10/24,09:55:17.134,0.61,0.99,127.30,56.86322143,24.11177280,0.00,0.02,ON,56.86322189,24.11177291,32.94,1.40,160.00,0.14,0.14
160982,2023/10/24,09:55:17.234,0.60,0.96,127.32,56.86322142,24.11177281,0.01,0.02,ON,56.86322189,24.11177291,32.94,1.40,161.00,0.16,0.16
161082,2023/10/24,09:55:17.334,0.59,0.98,127.34,56.86322141,24.11177281,0.01,0.02,ON,56.86322188,24.11177290,32.94,1.40,161.00,0.15,0.15
161182,2023/10/24,09:55:17.434,0.58,1.00,127.36,56.86322140,24.11177282,0.01,0.02,ON,56.86322188,24.11177290,32.94,1.50,171.00,0.14,0.14
161282,2023/10/24,09:55:17.534,0.58,0.96,127.36,56.86322139,24.11177283,0.01,0.01,ON,56.86322191,24.11177286,32.95,1.60,180.00,0.14,0.14
161382,2023/10/24,09:55:17.634,0.58,0.93,127.36,56.86322139,24.11177283,0.01,0.01,ON,56.86322191,24.11177286,32.95,1.70,184.00,0.14,0.14
161482,2023/10/24,09:55:17.734,0.59,0.90,127.35,56.86322139,24.11177284,0.01,0.01,ON,56.86322192,24.11177287,32.95,1.80,183.00,0.14,0.14
161582,2023/10/24,09:55:17.834,0.60,0.87,127.36,56.86322139,24.11177283,0.01,0.01,ON,56.86322192,24.11177287,32.95,1.80,172.00,0.14,0.14
161682,2023/10/24,09:55:17.934,0.60,0.92,127.37,56.86322139,24.11177283,0.01,0.01,ON,56.86322190,24.11177288,32.95,1.80,162.00,0.14,0.14
161782,2023/10/24,09:55:18.034,0.59,0.93,127.39,56.86322141,24.11177280,0.01,0.01,ON,56.86322190,24.11177288,32.95,1.90,150.00,0.13,0.13
161882,2023/10/24,09:55:18.133,0.59,0.94,127.37,56.86322141,24.11177281,0.00,0.01,ON,56.86322191,24.11177286,32.95,1.80,151.00,0.13,0.13
161982,2023/10/24,09:55:18.234,0.60,0.93,127.36,56.86322140,24.11177282,0.00,0.01,ON,56.86322191,24.11177286,32.95,1.60,152.00,0.14,0.14
162082,2023/10/24,09:55:18.334,0.58,0.91,127.37,56.86322140,24.11177283,0.00,0.02,ON,56.86322191,24.11177286,32.95,1.40,150.00,0.14,0.14
162182,2023/10/24,09:55:18.434,0.59,0.91,127.36,56.86322139,24.11177283,0.00,0.01,ON,56.86322191,24.11177286,32.95,1.20,144.00,0.14,0.14
162282,2023/10/24,09:55:18.534,0.61,0.91,127.35,56.86322139,24.11177284,0.00,0.02,ON,56.86322193,24.11177288,32.95,1.20,142.00,0.13,0.13
162382,2023/10/24,09:55:18.634,0.59,0.90,127.37,56.86322138,24.11177285,0.00,0.02,ON,56.86322193,24.11177288,32.95,1.20,145.00,0.13,0.13
162482,2023/10/24,09:55:18.734,0.60,0.91,127.36,56.86322140,24.11177283,-0.00,0.02,ON,56.86322192,24.11177288,32.95,1.20,144.00,0.13,0.13
162582,2023/10/24,09:55:18.834,0.60,0.90,127.37,56.86322140,24.11177285,-0.00,0.02,ON,56.86322192,24.11177288,32.95,1.20,148.00,0.14,0.14
162682,2023/10/24,09:55:18.933,0.60,0.90,127.37,56.86322140,24.11177287,-0.00,0.02,ON,56.86322192,24.11177288,32.95,1.20,143.00,0.14,0.14
162782,2023/10/24,09:55:19.033,0.61,0.90,127.35,56.86322142,24.11177287,-0.00,0.02,ON,56.86322192,24.11177288,32.95,1.20,138.00,0.14,0.14
162882,2023/10/24,09:55:19.133,0.60,0.91,127.35,56.86322142,24.11177288,-0.00,0.03,ON,56.86322194,24.11177287,32.95,1.10,137.00,0.14,0.14
162982,2023/10/24,09:55:19.233,0.61,0.91,127.39,56.86322141,24.11177289,-0.00,0.03,ON,56.86322194,24.11177287,32.95,1.00,130.00,0.14,0.14
163082,2023/10/24,09:55:19.333,0.63,0.93,127.38,56.86322141,24.11177291,-0.00,0.02,ON,56.86322193,24.11177287,32.95,1.00,131.00,0.14,0.14
163182,2023/10/24,09:55:19.433,0.64,0.93,127.37,56.86322143,24.11177288,-0.00,0.03,ON,56.86322193,24.11177287,32.95,1.00,139.00,0.14,0.14
163282,2023/10/24,09:55:19.533,0.68,1.00,127.34,56.86322143,24.11177288,-0.00,0.02,ON,56.86322192,24.11177283,32.95,1.00,148.00,0.15,0.15
163382,2023/10/24,09:55:19.633,0.70,1.06,127.31,56.86322142,24.11177288,-0.00,0.02,ON,56.86322192,24.11177283,32.95,0.90,155.00,0.15,0.15
163482,2023/10/24,09:55:19.733,0.72,1.14,127.35,56.86322142,24.11177286,-0.00,0.02,ON,56.86322192,24.11177282,32.95,0.90,157.00,0.14,0.14
163582,2023/10/24,09:55:19.833,0.75,1.54,127.38,56.86322142,24.11177284,-0.00,0.02,ON,56.86322192,24.11177282,32.95,0.80,151.00,0.14,0.14
163682,2023/10/24,09:55:19.933,0.62,2.68,127.53,56.86322144,24.11177278,0.00,0.07,ON,56.86322190,24.11177281,32.95,0.70,147.00,0.14,0.14
163782,2023/10/24,09:55:20.033,0.67,4.72,127.92,56.86322149,24.11177266,0.01,0.19,ON,56.86322188,24.11177282,32.95,0.70,147.00,0.13,0.13
163882,2023/10/24,09:55:20.133,0.47,5.81,128.25,56.86322161,24.11177241,0.03,0.38,ON,56.86322192,24.11177271,32.94,0.70,148.00,0.14,0.14
163982,2023/10/24,09:55:20.233,0.42,3.83,128.36,56.86322182,24.11177204,0.07,0.57,ON,56.86322192,24.11177271,32.94,0.80,141.00,0.16,0.16
164082,2023/10/24,09:55:20.333,0.63,0.22,128.39,56.86322208,24.11177160,0.12,0.67,ON,56.86322219,24.11177229,32.97,0.90,148.00,0.19,0.19
164182,2023/10/24,09:55:20.433,1.18,-3.02,128.42,56.86322240,24.11177110,0.18,0.71,ON,56.86322218,24.11177229,32.97,0.90,147.00,0.20,0.20
164282,2023/10/24,09:55:20.533,1.55,-6.05,128.40,56.86322266,24.11177073,0.24,0.69,ON,56.86322271,24.11177151,33.09,1.00,156.00,0.24,0.24
164382,2023/10/24,09:55:20.633,1.64,-6.56,128.45,56.86322287,24.11177045,0.30,0.63,ON,56.86322271,24.11177151,33.09,1.10,161.00,0.25,0.25
164482,2023/10/24,09:55:20.733,1.61,-4.62,128.38,56.86322299,24.11177032,0.36,0.59,ON,56.86322324,24.11177081,33.26,1.10,135.00,0.26,0.26
164582,2023/10/24,09:55:20.833,1.57,-2.27,128.30,56.86322311,24.11177025,0.42,0.54,ON,56.86322325,24.11177081,33.26,1.20,134.00,0.26,0.26
164682,2023/10/24,09:55:20.932,1.41,-1.08,128.16,56.86322317,24.11177025,0.47,0.49,ON,56.86322360,24.11177039,33.36,1.20,118.00,0.26,0.26
164782,2023/10/24,09:55:21.032,1.27,-1.14,128.11,56.86322322,24.11177025,0.52,0.44,ON,56.86322361,24.11177039,33.36,1.30,117.00,0.58,0.58
164882,2023/10/24,09:55:21.132,1.38,-1.86,128.08,56.86322329,24.11177024,0.56,0.40,ON,56.86322377,24.11177014,33.44,1.30,132.00,0.61,0.61
164982,2023/10/24,09:55:21.232,1.43,-2.31,128.11,56.86322334,24.11177022,0.60,0.39,ON,56.86322377,24.11177014,33.44,1.50,134.00,0.63,0.63
165082,2023/10/24,09:55:21.332,1.35,-1.98,128.16,56.86322337,24.11177021,0.64,0.41,ON,56.86322391,24.11177009,33.54,1.60,139.00,0.66,0.66
165182,2023/10/24,09:55:21.432,1.35,-1.27,128.19,56.86322339,24.11177019,0.68,0.45,ON,56.86322390,24.11177009,33.54,1.70,139.00,0.70,0.70
165282,2023/10/24,09:55:21.532,1.41,-0.93,128.09,56.86322342,24.11177014,0.73,0.51,ON,56.86322388,24.11177011,33.61,1.90,131.00,0.74,0.74
165382,2023/10/24,09:55:21.632,1.47,-1.22,128.06,56.86322343,24.11177014,0.79,0.61,ON,56.86322388,24.11177011,33.61,2.00,123.00,0.77,0.77
165482,2023/10/24,09:55:21.732,1.28,-1.86,127.96,56.86322342,24.11177015,0.85,0.73,ON,56.86322399,24.11177007,33.70,2.00,143.00,0.82,0.82
165582,2023/10/24,09:55:21.832,0.94,-2.49,127.96,56.86322338,24.11177016,0.93,0.88,ON,56.86322399,24.11177007,33.70,2.10,159.00,0.87,0.87
165682,2023/10/24,09:55:21.932,0.77,-2.89,127.95,56.86322332,24.11177025,1.03,1.01,ON,56.86322390,24.11177015,33.83,2.20,173.00,0.94,0.94
165782,2023/10/24,09:55:22.032,0.84,-3.39,127.92,56.86322329,24.11177039,1.13,1.12,ON,56.86322391,24.11177015,33.83,2.30,177.00,1.00,1.00
165882,2023/10/24,09:55:22.132,1.02,-4.29,127.85,56.86322322,24.11177059,1.25,1.18,ON,56.86322382,24.11177030,34.03,2.30,157.00,1.07,1.07
165982,2023/10/24,09:55:22.232,1.12,-5.51,127.84,56.86322313,24.11177086,1.36,1.18,ON,56.86322382,24.11177030,34.03,2.40,140.00,1.18,1.18
166082,2023/10/24,09:55:22.332,1.05,-6.78,127.79,56.86322298,24.11177126,1.48,1.16,ON,56.86322368,24.11177072,34.27,2.60,114.00,1.29,1.29
166182,2023/10/24,09:55:22.432,0.98,-7.75,127.86,56.86322276,24.11177181,1.59,1.14,ON,56.86322368,24.11177072,34.27,2.70,135.00,1.42,1.42
166282,2023/10/24,09:55:22.532,1.12,-8.41,127.86,56.86322251,24.11177247,1.69,1.14,ON,56.86322346,24.11177139,34.49,2.70,144.00,1.53,1.53
166382,2023/10/24,09:55:22.632,1.68,-8.58,127.90,56.86322217,24.11177334,1.79,1.17,ON,56.86322346,24.11177139,34.49,2.70,148.00,1.66,1.66
166482,2023/10/24,09:55:22.732,2.26,-7.48,127.93,56.86322179,24.11177431,1.88,1.21,ON,56.86322300,24.11177260,34.70,2.80,132.00,1.75,1.75
166582,2023/10/24,09:55:22.832,2.32,-5.39,127.99,56.86322131,24.11177543,1.97,1.26,ON,56.86322300,24.11177260,34.70,2.70,109.00,1.79,1.79
166682,2023/10/24,09:55:22.931,1.84,-1.08,128.01,56.86322083,24.11177652,2.05,1.31,ON,56.86322221,24.11177453,34.88,2.70,85.00,1.90,1.90
166782,2023/10/24,09:55:23.031,0.98,5.33,127.97,56.86322026,24.11177772,2.14,1.26,ON,56.86322222,24.11177453,34.88,2.70,83.00,1.98,1.98
166882,2023/10/24,09:55:23.131,0.12,8.99,127.74,56.86321976,24.11177872,2.22,1.12,ON,56.86322120,24.11177668,35.01,2.50,109.00,2.11,2.11
166982,2023/10/24,09:55:23.231,-0.51,8.67,127.62,56.86321934,24.11177955,2.30,0.99,ON,56.86322121,24.11177668,35.01,2.60,128.00,2.20,2.20
167082,2023/10/24,09:55:23.331,-0.56,5.89,127.71,56.86321905,24.11178014,2.37,0.91,ON,56.86322013,24.11177873,35.14,2.60,131.00,2.39,2.39
167182,2023/10/24,09:55:23.431,-0.26,2.81,127.84,56.86321882,24.11178060,2.45,0.81,ON,56.86322012,24.11177874,35.14,2.60,115.00,2.53,2.53
167282,2023/10/24,09:55:23.531,0.05,0.96,127.91,56.86321864,24.11178099,2.51,0.63,ON,56.86321948,24.11178022,35.34,2.50,112.00,2.63,2.63
167382,2023/10/24,09:55:23.631,0.16,0.82,127.96,56.86321842,24.11178135,2.56,0.53,ON,56.86321948,24.11178022,35.34,2.40,112.00,2.65,2.65
167482,2023/10/24,09:55:23.731,0.22,2.75,127.95,56.86321825,24.11178174,2.59,0.45,ON,56.86321912,24.11178115,35.49,2.40,96.00,2.66,2.66
167582,2023/10/24,09:55:23.831,0.46,4.57,127.89,56.86321811,24.11178218,2.61,0.33,ON,56.86321912,24.11178115,35.49,2.20,109.00,2.71,2.71
167682,2023/10/24,09:55:23.930,0.79,4.55,127.82,56.86321807,24.11178244,2.63,0.22,ON,56.86321863,24.11178198,35.55,2.10,120.00,2.76,2.76
167782,2023/10/24,09:55:24.030,0.99,2.95,127.78,56.86321803,24.11178264,2.63,0.12,ON,56.86321864,24.11178198,35.55,2.00,95.00,2.80,2.80
167882,2023/10/24,09:55:24.130,1.07,0.97,127.74,56.86321801,24.11178277,2.64,0.08,ON,56.86321844,24.11178259,35.56,1.80,85.00,2.78,2.78
167982,2023/10/24,09:55:24.230,0.99,0.12,127.80,56.86321795,24.11178286,2.64,0.07,ON,56.86321844,24.11178260,35.56,1.90,66.00,2.77,2.77
168082,2023/10/24,09:55:24.330,0.79,0.48,127.84,56.86321787,24.11178295,2.63,0.08,ON,56.86321848,24.11178285,35.59,1.90,56.00,2.76,2.76
168182,2023/10/24,09:55:24.430,0.71,1.23,127.90,56.86321783,24.11178302,2.63,0.07,ON,56.86321848,24.11178285,35.59,1.80,71.00,2.75,2.75
168282,2023/10/24,09:55:24.530,0.76,1.57,127.92,56.86321780,24.11178307,2.63,0.05,ON,56.86321843,24.11178300,35.59,1.80,53.00,2.74,2.74
168382,2023/10/24,09:55:24.630,0.92,1.31,127.99,56.86321786,24.11178303,2.62,0.03,ON,56.86321842,24.11178300,35.59,1.70,58.00,2.73,2.73
168482,2023/10/24,09:55:24.730,1.02,0.69,128.05,56.86321789,24.11178301,2.62,0.03,ON,56.86321841,24.11178306,35.58,1.80,298.00,2.72,2.72
168582,2023/10/24,09:55:24.830,0.95,0.16,128.15,56.86321790,24.11178296,2.62,0.04,ON,56.86321841,24.11178306,35.58,1.70,2.00,2.72,2.72
168682,2023/10/24,09:55:24.930,0.77,0.07,128.27,56.86321791,24.11178290,2.61,0.04,ON,56.86321849,24.11178297,35.58,1.80,351.00,2.72,2.72
168782,2023/10/24,09:55:25.030,0.65,0.32,128.42,56.86321793,24.11178281,2.61,0.04,ON,56.86321848,24.11178297,35.58,1.80,345.00,2.76,2.76
168882,2023/10/24,09:55:25.130,0.59,0.65,128.51,56.86321794,24.11178275,2.61,0.03,ON,56.86321853,24.11178280,35.58,1.90,338.00,2.77,2.77
168982,2023/10/24,09:55:25.230,0.66,0.77,128.60,56.86321796,24.11178266,2.61,0.04,ON,56.86321853,24.11178280,35.58,1.90,335.00,2.77,2.77
169082,2023/10/24,09:55:25.330,0.69,0.57,128.64,56.86321802,24.11178253,2.61,0.05,ON,56.86321859,24.11178262,35.58,2.20,315.00,2.78,2.78
169182,2023/10/24,09:55:25.430,0.55,0.20,128.69,56.86321805,24.11178241,2.61,0.05,ON,56.86321859,24.11178262,35.58,2.40,316.00,2.76,2.76
169282,2023/10/24,09:55:25.530,0.37,-0.21,128.73,56.86321808,24.11178229,2.61,0.05,ON,56.86321863,24.11178244,35.57,2.30,328.00,2.76,2.76
169382,2023/10/24,09:55:25.630,0.29,-0.32,128.78,56.86321812,24.11178219,2.61,0.04,ON,56.86321863,24.11178244,35.57,2.50,327.00,2.77,2.77
169482,2023/10/24,09:55:25.730,0.36,-0.06,128.77,56.86321819,24.11178207,2.61,0.02,ON,56.86321872,24.11178218,35.58,2.70,325.00,2.78,2.78
169582,2023/10/24,09:55:25.830,0.44,0.27,128.75,56.86321821,24.11178202,2.61,0.02,ON,56.86321872,24.11178218,35.58,2.70,330.00,2.79,2.79
169682,2023/10/24,09:55:25.929,0.49,0.27,128.68,56.86321824,24.11178197,2.61,0.02,ON,56.86321878,24.11178199,35.58,2.70,317.00,2.80,2.80
169782,2023/10/24,09:55:26.029,0.49,0.01,128.62,56.86321831,24.11178186,2.61,0.02,ON,56.86321879,24.11178199,35.58,2.90,311.00,2.80,2.80
169882,2023/10/24,09:55:26.129,0.36,-0.29,128.57,56.86321834,24.11178181,2.62,0.01,ON,56.86321884,24.11178185,35.58,3.00,307.00,2.80,2.80
169982,2023/10/24,09:55:26.229,0.23,-0.38,128.53,56.86321836,24.11178177,2.62,0.00,ON,56.86321885,24.11178185,35.58,3.10,321.00,2.80,2.80
170082,2023/10/24,09:55:26.329,0.15,-0.18,128.45,56.86321838,24.11178176,2.62,0.01,ON,56.86321892,24.11178172,35.59,3.10,331.00,2.80,2.80
170182,2023/10/24,09:55:26.429,0.23,0.14,128.40,56.86321842,24.11178172,2.62,0.02,ON,56.86321892,24.11178171,35.59,3.10,329.00,2.78,2.78
170282,2023/10/24,09:55:26.529,0.43,0.34,128.34,56.86321843,24.11178173,2.62,0.02,ON,56.86321897,24.11178162,35.59,3.10,325.00,2.77,2.77
170382,2023/10/24,09:55:26.629,0.50,0.30,128.33,56.86321846,24.11178174,2.62,0.02,ON,56.86321897,24.11178162,35.59,3.00,311.00,2.76,2.76
170482,2023/10/24,09:55:26.729,0.41,0.06,128.32,56.86321850,24.11178170,2.63,0.02,ON,56.86321902,24.11178163,35.59,3.00,300.00,2.74,2.74
170582,2023/10/24,09:55:26.829,0.43,-0.07,128.31,56.86321852,24.11178170,2.63,0.02,ON,56.86321902,24.11178163,35.59,3.00,313.00,2.74,2.74
170682,2023/10/24,09:55:26.928,0.64,0.06,128.27,56.86321854,24.11178171,2.63,0.03,ON,56.86321910,24.11178162,35.60,2.90,325.00,2.73,2.73
170782,2023/10/24,09:55:27.028,0.89,0.33,128.25,56.86321856,24.11178174,2.63,0.03,ON,56.86321910,24.11178162,35.60,2.70,336.00,2.74,2.74
170882,2023/10/24,09:55:27.128,0.92,0.43,128.22,56.86321862,24.11178170,2.63,0.02,ON,56.86321915,24.11178164,35.60,2.80,337.00,2.73,2.73
170982,2023/10/24,09:55:27.228,0.81,0.36,128.18,56.86321864,24.11178171,2.63,0.01,ON,56.86321915,24.11178163,35.60,2.80,326.00,2.74,2.74
171082,2023/10/24,09:55:27.328,0.68,0.15,128.14,56.86321867,24.11178170,2.64,0.01,ON,56.86321920,24.11178167,35.60,2.80,316.00,2.74,2.74
171182,2023/10/24,09:55:27.428,0.64,-0.02,128.14,56.86321873,24.11178165,2.64,0.01,ON,56.86321920,24.11178167,35.60,2.80,309.00,2.75,2.75
171282,2023/10/24,09:55:27.528,0.55,-0.03,128.13,56.86321874,24.11178165,2.64,0.02,ON,56.86321923,24.11178171,35.60,2.90,318.00,2.75,2.75
171382,2023/10/24,09:55:27.628,0.29,0.19,128.20,56.86321876,24.11178166,2.64,0.03,ON,56.86321923,24.11178171,35.60,2.70,329.00,2.76,2.76
171482,2023/10/24,09:55:27.728,0.39,0.41,128.21,56.86321878,24.11178169,2.65,0.04,ON,56.86321926,24.11178172,35.61,2.60,333.00,2.78,2.78
171582,2023/10/24,09:55:27.829,0.77,0.59,128.23,56.86321883,24.11178171,2.65,0.08,ON,56.86321926,24.11178172,35.61,2.70,327.00,2.78,2.78
171682,2023/10/24,09:55:27.928,1.17,0.62,128.21,56.86321885,24.11178174,2.66,0.14,ON,56.86321930,24.11178175,35.62,2.70,322.00,2.79,2.79
171782,2023/10/24,09:55:28.028,1.33,0.50,128.21,56.86321887,24.11178175,2.68,0.22,ON,56.86321930,24.11178175,35.62,2.60,316.00,2.80,2.80
171882,2023/10/24,09:55:28.128,1.17,0.21,128.16,56.86321889,24.11178172,2.71,0.34,ON,56.86321937,24.11178173,35.63,2.40,315.00,2.81,2.81
171982,2023/10/24,09:55:28.228,0.82,-0.11,128.12,56.86321890,24.11178169,2.75,0.49,ON,56.86321937,24.11178173,35.63,2.40,325.00,2.83,2.83
172082,2023/10/24,09:55:28.328,0.39,-0.36,128.02,56.86321890,24.11178166,2.81,0.66,ON,56.86321940,24.11178172,35.69,2.40,332.00,2.84,2.84
172182,2023/10/24,09:55:28.428,-0.00,-0.46,127.93,56.86321889,24.11178164,2.89,0.87,ON,56.86321941,24.11178172,35.69,2.40,330.00,2.88,2.88
172282,2023/10/24,09:55:28.528,-0.17,-0.40,127.86,56.86321890,24.11178161,2.99,1.10,ON,56.86321940,24.11178168,35.80,2.30,318.00,2.90,2.90
172382,2023/10/24,09:55:28.628,-0.03,-0.14,127.78,56.86321890,24.11178168,3.12,1.36,ON,56.86321941,24.11178168,35.80,2.30,309.00,3.00,3.00
172482,2023/10/24,09:55:28.728,0.27,0.15,127.73,56.86321891,24.11178178,3.27,1.64,ON,56.86321940,24.11178162,36.00,2.20,304.00,3.09,3.09
172582,2023/10/24,09:55:28.828,0.73,0.35,127.75,56.86321893,24.11178188,3.45,1.93,ON,56.86321939,24.11178162,36.00,2.10,311.00,3.20,3.20
172682,2023/10/24,09:55:28.927,1.06,0.44,127.76,56.86321894,24.11178199,3.66,2.23,ON,56.86321941,24.11178172,36.29,2.00,314.00,3.41,3.41
172782,2023/10/24,09:55:29.027,1.10,0.40,127.81,56.86321896,24.11178206,3.90,2.54,ON,56.86321941,24.11178172,36.29,1.90,310.00,3.57,3.57
172882,2023/10/24,09:55:29.127,0.97,0.20,127.80,56.86321898,24.11178211,4.18,2.80,ON,56.86321942,24.11178182,36.71,1.90,307.00,3.80,3.80
172982,2023/10/24,09:55:29.227,0.82,-0.14,127.76,56.86321901,24.11178208,4.47,2.98,ON,56.86321942,24.11178182,36.71,1.90,300.00,3.97,3.97
173082,2023/10/24,09:55:29.327,0.87,-0.39,127.72,56.86321903,24.11178212,4.78,3.12,ON,56.86321942,24.11178188,37.24,2.00,299.00,4.28,4.28
173182,2023/10/24,09:55:29.427,0.94,-0.37,127.69,56.86321903,24.11178216,5.10,3.22,ON,56.86321942,24.11178188,37.24,2.00,300.00,4.52,4.52
173282,2023/10/24,09:55:29.527,0.97,-0.17,127.67,56.86321902,24.11178216,5.43,3.27,ON,56.86321953,24.11178189,37.85,2.00,301.00,4.76,4.76
173382,2023/10/24,09:55:29.627,0.92,0.07,127.67,56.86321900,24.11178221,5.76,3.31,ON,56.86321953,24.11178189,37.85,2.10,305.00,5.20,5.20
173482,2023/10/24,09:55:29.727,1.00,0.30,127.59,56.86321899,24.11178227,6.10,3.32,ON,56.86321954,24.11178196,38.50,2.30,301.00,5.38,5.38
173582,2023/10/24,09:55:29.827,0.97,0.40,127.54,56.86321900,24.11178232,6.44,3.31,ON,56.86321954,24.11178196,38.50,2.30,294.00,5.55,5.55
173682,2023/10/24,09:55:29.927,0.81,0.36,127.54,56.86321904,24.11178225,6.77,3.28,ON,56.86321956,24.11178199,39.16,2.20,295.00,5.58,5.58
173782,2023/10/24,09:55:30.027,0.86,0.26,127.61,56.86321906,24.11178229,7.10,3.26,ON,56.86321955,24.11178199,39.16,2.20,288.00,6.01,6.01
173882,2023/10/24,09:55:30.127,1.29,0.17,127.71,56.86321909,24.11178231,7.43,3.22,ON,56.86321954,24.11178207,39.82,2.30,284.00,6.43,6.43
173982,2023/10/24,09:55:30.227,1.85,0.01,127.74,56.86321915,24.11178224,7.75,3.19,ON,56.86321954,24.11178207,39.82,2.30,283.00,6.72,6.72
174082,2023/10/24,09:55:30.327,2.10,-0.22,127.72,56.86321917,24.11178224,8.07,3.16,ON,56.86321964,24.11178211,40.48,2.30,284.00,7.34,7.34
174183,2023/10/24,09:55:30.427,2.02,-0.40,127.72,56.86321917,24.11178223,8.39,3.13,ON,56.86321964,24.11178211,40.48,2.30,278.00,7.64,7.64
174282,2023/10/24,09:55:30.527,1.77,-0.43,127.75,56.86321916,24.11178223,8.70,3.12,ON,56.86321961,24.11178213,41.11,2.50,275.00,8.10,8.10
174382,2023/10/24,09:55:30.627,1.58,-0.24,127.77,56.86321917,24.11178217,9.02,3.11,ON,56.86321961,24.11178213,41.11,2.60,274.00,8.45,8.45
174482,2023/10/24,09:55:30.727,1.46,-0.08,127.75,56.86321914,24.11178217,9.33,3.09,ON,56.86321957,24.11178218,41.74,2.40,272.00,8.66,8.66
174582,2023/10/24,09:55:30.827,1.49,0.02,127.69,56.86321908,24.11178216,9.64,3.08,ON,56.86321957,24.11178218,41.74,2.30,270.00,8.77,8.77
174682,2023/10/24,09:55:30.926,1.49,0.05,127.63,56.86321900,24.11178212,9.95,3.07,ON,56.86321950,24.11178218,42.36,2.20,264.00,8.97,8.97
174782,2023/10/24,09:55:31.026,1.23,0.08,127.63,56.86321893,24.11178211,10.26,3.06,ON,56.86321950,24.11178218,42.36,2.10,267.00,9.09,9.09
174882,2023/10/24,09:55:31.126,0.90,0.10,127.63,56.86321886,24.11178209,10.56,3.05,ON,56.86321944,24.11178212,42.97,2.00,266.00,9.39,9.39
174982,2023/10/24,09:55:31.226,0.63,0.13,127.71,56.86321880,24.11178206,10.87,3.05,ON,56.86321944,24.11178212,42.97,2.00,261.00,10.09,10.09
175082,2023/10/24,09:55:31.326,0.47,0.10,127.76,56.86321872,24.11178200,11.17,3.05,ON,56.86321936,24.11178198,43.58,1.90,260.00,10.44,10.44
175182,2023/10/24,09:55:31.426,0.36,-0.00,127.81,56.86321869,24.11178195,11.48,3.06,ON,56.86321936,24.11178198,43.58,1.60,257.00,10.92,10.92
175282,2023/10/24,09:55:31.526,0.31,-0.05,127.85,56.86321865,24.11178189,11.78,3.06,ON,56.86321923,24.11178187,44.19,1.80,249.00,11.17,11.17
175382,2023/10/24,09:55:31.626,0.40,-0.01,127.91,56.86321867,24.11178175,12.09,3.05,ON,56.86321923,24.11178187,44.19,1.70,245.00,11.32,11.32
175482,2023/10/24,09:55:31.726,0.50,0.01,127.94,56.86321865,24.11178169,12.39,3.04,ON,56.86321920,24.11178168,44.81,1.70,246.00,11.79,11.79
175582,2023/10/24,09:55:31.826,0.68,0.04,127.98,56.86321862,24.11178162,12.70,3.04,ON,56.86321920,24.11178168,44.81,1.50,250.00,12.09,12.09
175682,2023/10/24,09:55:31.925,0.86,-0.08,127.95,56.86321861,24.11178156,13.00,3.03,ON,56.86321918,24.11178154,45.41,1.60,256.00,12.35,12.35
175782,2023/10/24,09:55:32.025,0.78,-0.41,127.97,56.86321861,24.11178139,13.30,3.03,ON,56.86321918,24.11178154,45.41,1.70,267.00,12.86,12.86
175882,2023/10/24,09:55:32.125,0.80,-0.69,128.01,56.86321860,24.11178131,13.60,3.04,ON,56.86321914,24.11178135,46.01,1.70,283.00,13.16,13.16
175982,2023/10/24,09:55:32.225,0.82,-0.73,128.05,56.86321858,24.11178124,13.91,3.05,ON,56.86321914,24.11178135,46.01,2.00,311.00,13.38,13.38
176082,2023/10/24,09:55:32.325,0.65,-0.46,128.09,56.86321856,24.11178113,14.21,3.05,ON,56.86321911,24.11178113,46.62,2.30,332.00,13.88,13.88
176182,2023/10/24,09:55:32.425,0.24,-0.05,128.14,56.86321849,24.11178105,14.52,3.05,ON,56.86321911,24.11178113,46.62,2.30,345.00,14.31,14.31
176282,2023/10/24,09:55:32.525,-0.26,0.22,128.13,56.86321842,24.11178096,14.82,3.05,ON,56.86321907,24.11178095,47.22,2.40,351.00,14.60,14.60
176382,2023/10/24,09:55:32.625,-0.66,0.33,128.10,56.86321835,24.11178086,15.12,3.05,ON,56.86321907,24.11178094,47.22,2.40,355.00,14.88,14.88
176482,2023/10/24,09:55:32.725,-0.60,0.18,128.11,56.86321833,24.11178067,15.43,3.05,ON,56.86321901,24.11178077,47.84,2.50,7.00,15.00,15.00
176582,2023/10/24,09:55:32.825,-0.61,-0.08,128.18,56.86321830,24.11178056,15.73,3.05,ON,56.86321900,24.11178077,47.84,2.50,15.00,15.22,15.22
176682,2023/10/24,09:55:32.925,-0.49,-0.29,128.23,56.86321828,24.11178046,16.04,3.04,ON,56.86321886,24.11178056,48.44,2.60,11.00,15.60,15.60
176782,2023/10/24,09:55:33.025,-0.51,-0.40,128.22,56.86321831,24.11178031,16.34,3.04,ON,56.86321886,24.11178056,48.44,2.80,7.00,15.83,15.83
176882,2023/10/24,09:55:33.125,-0.42,-0.55,128.10,56.86321830,24.11178022,16.64,3.03,ON,56.86321885,24.11178029,49.05,2.70,14.00,15.98,15.98
176982,2023/10/24,09:55:33.225,-0.34,-0.47,127.99,56.86321826,24.11178014,16.95,3.03,ON,56.86321886,24.11178029,49.05,2.70,14.00,16.12,16.12
177082,2023/10/24,09:55:33.325,-0.25,-0.52,127.93,56.86321824,24.11178005,17.25,3.02,ON,56.86321878,24.11178002,49.65,2.80,20.00,16.48,16.48
177182,2023/10/24,09:55:33.425,-0.28,-0.96,127.96,56.86321825,24.11177988,17.55,3.03,ON,56.86321878,24.11178002,49.65,2.90,22.00,16.79,16.79
177282,2023/10/24,09:55:33.525,-0.43,-1.37,128.09,56.86321824,24.11177977,17.85,3.04,ON,56.86321870,24.11177980,50.25,2.90,27.00,17.08,17.08
177382,2023/10/24,09:55:33.625,-0.29,-1.38,128.17,56.86321823,24.11177967,18.15,3.04,ON,56.86321870,24.11177980,50.25,2.90,31.00,17.54,17.54
177482,2023/10/24,09:55:33.725,0.23,-1.07,128.14,56.86321821,24.11177957,18.44,3.03,ON,56.86321874,24.11177952,50.87,2.70,34.00,17.84,17.84
177582,2023/10/24,09:55:33.825,0.48,-0.77,128.09,56.86321818,24.11177950,18.74,3.04,ON,56.86321874,24.11177952,50.87,2.50,37.00,18.17,18.17
177682,2023/10/24,09:55:33.925,0.22,-0.62,128.07,56.86321814,24.11177941,19.04,3.05,ON,56.86321871,24.11177935,51.47,2.30,35.00,18.37,18.37
177782,2023/10/24,09:55:34.025,-0.26,-0.64,128.11,56.86321811,24.11177928,19.35,3.05,ON,56.86321871,24.11177935,51.47,2.40,37.00,18.65,18.65
177882,2023/10/24,09:55:34.124,-0.70,-0.68,128.15,56.86321807,24.11177906,19.65,3.05,ON,56.86321860,24.11177920,52.07,2.40,42.00,19.01,19.01
177982,2023/10/24,09:55:34.225,-0.96,-0.74,128.19,56.86321802,24.11177893,19.96,3.05,ON,56.86321860,24.11177920,52.07,2.60,42.00,19.15,19.15
178082,2023/10/24,09:55:34.324,-1.07,-0.87,128.17,56.86321797,24.11177881,20.26,3.05,ON,56.86321859,24.11177891,52.69,2.60,44.00,19.40,19.40
178182,2023/10/24,09:55:34.425,-1.10,-0.98,128.17,56.86321791,24.11177863,20.57,3.05,ON,56.86321860,24.11177891,52.69,2.70,45.00,19.68,19.68
178283,2023/10/24,09:55:34.525,-1.24,-0.99,128.19,56.86321787,24.11177853,20.88,3.04,ON,56.86321857,24.11177864,53.30,2.60,43.00,20.11,20.11
178383,2023/10/24,09:55:34.625,-1.41,-0.88,128.22,56.86321785,24.11177843,21.19,3.04,ON,56.86321856,24.11177864,53.30,2.60,44.00,20.19,20.19
178482,2023/10/24,09:55:34.725,-1.40,-0.86,128.21,56.86321784,24.11177835,21.49,3.04,ON,56.86321853,24.11177839,53.91,2.70,40.00,20.40,20.40
178582,2023/10/24,09:55:34.825,-1.29,-0.90,128.19,56.86321790,24.11177819,21.80,3.03,ON,56.86321853,24.11177839,53.91,2.80,37.00,20.40,20.40
178683,2023/10/24,09:55:34.924,-1.24,-1.00,128.18,56.86321791,24.11177812,22.10,3.03,ON,56.86321845,24.11177817,54.52,2.80,35.00,22.50,22.50
178782,2023/10/24,09:55:35.024,-1.28,-0.99,128.20,56.86321792,24.11177805,22.41,3.03,ON,56.86321845,24.11177817,54.52,2.80,32.00,22.61,22.61
178882,2023/10/24,09:55:35.124,-1.26,-0.97,128.19,56.86321795,24.11177796,22.71,3.02,ON,56.86321856,24.11177792,55.12,2.80,32.00,22.66,22.66
178982,2023/10/24,09:55:35.224,-1.22,-0.96,128.21,56.86321795,24.11177789,23.02,3.02,ON,56.86321856,24.11177792,55.12,2.80,32.00,22.80,22.80
179082,2023/10/24,09:55:35.324,-1.30,-0.99,128.26,56.86321795,24.11177783,23.32,3.02,ON,56.86321854,24.11177777,55.72,2.90,32.00,22.85,22.85
179182,2023/10/24,09:55:35.424,-1.32,-0.97,128.30,56.86321799,24.11177774,23.62,3.02,ON,56.86321854,24.11177777,55.72,2.90,32.00,22.95,22.95
179283,2023/10/24,09:55:35.524,-1.34,-1.13,128.25,56.86321808,24.11177759,23.92,3.01,ON,56.86321853,24.11177766,56.33,3.00,34.00,22.97,22.97
179383,2023/10/24,09:55:35.624,-1.38,-1.44,128.27,56.86321811,24.11177751,24.22,3.01,ON,56.86321853,24.11177766,56.33,3.10,37.00,23.01,23.01
179483,2023/10/24,09:55:35.724,-1.35,-1.72,128.23,56.86321813,24.11177745,24.52,3.01,ON,56.86321859,24.11177746,56.93,3.10,37.00,23.05,23.05
179582,2023/10/24,09:55:35.824,-1.44,-1.76,128.23,56.86321816,24.11177734,24.82,3.01,ON,56.86321859,24.11177746,56.93,3.10,37.00,23.10,23.10
179682,2023/10/24,09:55:35.923,-1.54,-1.70,128.18,56.86321816,24.11177731,25.12,3.01,ON,56.86321871,24.11177732,57.53,3.10,35.00,23.11,23.11
179782,2023/10/24,09:55:36.023,-1.54,-1.49,128.12,56.86321818,24.11177728,25.42,3.01,ON,56.86321872,24.11177732,57.53,3.10,35.00,23.13,23.13
179882,2023/10/24,09:55:36.123,-1.48,-1.41,128.05,56.86321821,24.11177727,25.71,3.00,ON,56.86321880,24.11177721,58.13,3.10,37.00,23.13,23.13
179983,2023/10/24,09:55:36.223,-1.41,-1.37,127.99,56.86321829,24.11177723,26.01,3.00,ON,56.86321881,24.11177720,58.13,3.20,37.00,25.56,25.56
180083,2023/10/24,09:55:36.323,-1.18,-1.35,128.01,56.86321834,24.11177726,26.31,3.01,ON,56.86321883,24.11177720,58.73,3.20,38.00,25.60,25.60
180183,2023/10/24,09:55:36.423,-0.88,-1.42,128.08,56.86321840,24.11177730,26.61,3.01,ON,56.86321883,24.11177720,58.73,3.20,39.00,25.65,25.65
180283,2023/10/24,09:55:36.523,-0.71,-1.57,128.10,56.86321848,24.11177732,26.91,3.01,ON,56.86321900,24.11177709,59.32,3.20,41.00,25.72,25.72
180383,2023/10/24,09:55:36.623,-0.75,-1.55,128.16,56.86321851,24.11177738,27.21,3.01,ON,56.86321900,24.11177709,59.32,3.20,42.00,25.74,25.74
180482,2023/10/24,09:55:36.723,-0.88,-1.43,128.17,56.86321854,24.11177743,27.50,3.00,ON,56.86321915,24.11177710,59.92,3.20,40.00,25.87,25.87
180582,2023/10/24,09:55:36.823,-1.02,-1.28,128.17,56.86321859,24.11177744,27.80,3.00,ON,56.86321915,24.11177710,59.92,3.10,40.00,25.99,25.99
180683,2023/10/24,09:55:36.923,-1.04,-1.30,128.19,56.86321868,24.11177738,28.10,3.00,ON,56.86321924,24.11177717,60.52,3.20,43.00,26.01,26.01
180782,2023/10/24,09:55:37.023,-0.95,-1.56,128.19,56.86321874,24.11177738,28.40,3.00,ON,56.86321924,24.11177717,60.52,3.10,42.00,28.83,28.83
180882,2023/10/24,09:55:37.123,-0.91,-1.72,128.12,56.86321880,24.11177738,28.69,3.00,ON,56.86321932,24.11177723,61.12,3.10,41.00,28.95,28.95
180983,2023/10/24,09:55:37.223,-1.07,-1.75,128.11,56.86321890,24.11177732,28.99,3.00,ON,56.86321933,24.11177723,61.12,3.20,41.00,28.97,28.97
181082,2023/10/24,09:55:37.323,-1.10,-1.83,128.09,56.86321894,24.11177735,29.29,2.99,ON,56.86321945,24.11177726,61.72,3.20,41.00,29.06,29.06
181183,2023/10/24,09:55:37.423,-1.00,-1.89,128.13,56.86321897,24.11177739,29.59,2.99,ON,56.86321944,24.11177726,61.72,3.30,42.00,29.42,29.42
181283,2023/10/24,09:55:37.523,-0.87,-1.92,128.17,56.86321899,24.11177743,29.88,2.99,ON,56.86321952,24.11177733,62.31,3.30,44.00,29.61,29.61
181383,2023/10/24,09:55:37.623,-0.85,-1.85,128.23,56.86321905,24.11177743,30.18,2.99,ON,56.86321951,24.11177733,62.31,3.40,46.00,29.90,29.90
181483,2023/10/24,09:55:37.723,-1.00,-1.67,128.33,56.86321907,24.11177746,30.48,2.99,ON,56.86321954,24.11177736,62.90,3.40,44.00,30.07,30.07
181583,2023/10/24,09:55:37.823,-1.13,-1.52,128.31,56.86321908,24.11177750,30.77,2.99,ON,56.86321954,24.11177736,62.90,3.40,45.00,30.27,30.27
181683,2023/10/24,09:55:37.922,-1.23,-1.52,128.28,56.86321909,24.11177751,31.07,2.99,ON,56.86321958,24.11177739,63.50,3.50,44.00,30.53,30.53
181783,2023/10/24,09:55:38.022,-1.29,-1.62,128.26,56.86321909,24.11177753,31.37,3.00,ON,56.86321958,24.11177739,63.50,3.60,44.00,30.78,30.78
181883,2023/10/24,09:55:38.122,-1.31,-1.77,128.22,56.86321908,24.11177755,31.66,3.00,ON,56.86321961,24.11177733,64.09,3.60,49.00,30.94,30.94
181983,2023/10/24,09:55:38.222,-1.18,-1.89,128.23,56.86321907,24.11177758,31.96,3.00,ON,56.86321961,24.11177733,64.09,3.60,49.00,31.16,31.16
182082,2023/10/24,09:55:38.322,-1.14,-1.87,128.19,56.86321907,24.11177756,32.26,3.01,ON,56.86321965,24.11177731,64.69,3.50,45.00,31.39,31.39
182183,2023/10/24,09:55:38.422,-1.11,-1.69,128.21,56.86321907,24.11177759,32.56,3.02,ON,56.86321965,24.11177731,64.69,3.50,45.00,31.74,31.74
182283,2023/10/24,09:55:38.522,-1.02,-1.51,128.20,56.86321907,24.11177763,32.86,3.03,ON,56.86321964,24.11177731,65.30,3.50,45.00,32.30,32.30
182383,2023/10/24,09:55:38.622,-0.99,-1.44,128.23,56.86321911,24.11177758,33.16,3.04,ON,56.86321964,24.11177731,65.30,3.50,46.00,32.63,32.63
182483,2023/10/24,09:55:38.722,-1.07,-1.51,128.23,56.86321911,24.11177763,33.46,3.03,ON,56.86321966,24.11177730,65.90,3.50,47.00,33.03,33.03
182583,2023/10/24,09:55:38.822,-1.05,-1.58,128.23,56.86321911,24.11177768,33.77,3.03,ON,56.86321966,24.11177730,65.90,3.40,48.00,33.18,33.18
182683,2023/10/24,09:55:38.921,-1.08,-1.57,128.17,56.86321911,24.11177774,34.07,3.03,ON,56.86321969,24.11177735,66.50,3.40,45.00,33.43,33.43
182783,2023/10/24,09:55:39.021,-1.18,-1.52,128.11,56.86321914,24.11177769,34.37,3.03,ON,56.86321969,24.11177735,66.50,3.30,45.00,33.71,33.71
182883,2023/10/24,09:55:39.121,-1.22,-1.50,128.10,56.86321915,24.11177775,34.67,3.02,ON,56.86321975,24.11177738,67.11,3.30,46.00,34.08,34.08
182983,2023/10/24,09:55:39.221,-1.06,-1.40,128.15,56.86321917,24.11177783,34.97,3.02,ON,56.86321975,24.11177738,67.11,3.20,46.00,34.44,34.44
183083,2023/10/24,09:55:39.321,-0.64,-1.60,128.15,56.86321922,24.11177785,35.28,3.02,ON,56.86321978,24.11177754,67.72,3.20,46.00,34.67,34.67
183183,2023/10/24,09:55:39.421,-0.28,-1.86,128.13,56.86321926,24.11177793,35.58,3.02,ON,56.86321978,24.11177754,67.72,3.10,47.00,34.98,34.98
183283,2023/10/24,09:55:39.521,-0.27,-1.93,128.08,56.86321928,24.11177800,35.88,3.02,ON,56.86321988,24.11177769,68.31,3.10,47.00,35.22,35.22
183383,2023/10/24,09:55:39.621,-0.52,-1.84,128.12,56.86321928,24.11177810,36.18,3.01,ON,56.86321987,24.11177769,68.31,3.00,47.00,35.30,35.30
183483,2023/10/24,09:55:39.721,-0.73,-1.58,128.14,56.86321933,24.11177811,36.48,3.01,ON,56.86321992,24.11177785,68.92,3.00,47.00,35.62,35.62
183583,2023/10/24,09:55:39.821,-0.83,-1.26,128.13,56.86321933,24.11177822,36.78,3.01,ON,56.86321992,24.11177785,68.92,3.00,48.00,36.02,36.02
183683,2023/10/24,09:55:39.921,-0.89,-0.91,127.98,56.86321933,24.11177833,37.08,3.01,ON,56.86321996,24.11177792,69.52,3.10,49.00,36.76,36.76
183783,2023/10/24,09:55:40.021,-1.02,-0.86,127.84,56.86321939,24.11177836,37.38,3.00,ON,56.86321997,24.11177791,69.52,3.10,51.00,36.96,36.96
183883,2023/10/24,09:55:40.121,-1.01,-1.05,127.77,56.86321942,24.11177843,37.68,3.00,ON,56.86321999,24.11177803,70.12,3.10,55.00,37.27,37.27
183983,2023/10/24,09:55:40.221,-0.74,-1.32,127.83,56.86321948,24.11177848,37.98,2.99,ON,56.86321999,24.11177803,70.12,3.10,55.00,37.49,37.49
184083,2023/10/24,09:55:40.321,-0.18,-1.77,127.91,56.86321954,24.11177851,38.28,2.99,ON,56.86322003,24.11177813,70.72,3.10,55.00,37.63,37.63
184183,2023/10/24,09:55:40.421,0.24,-2.22,127.96,56.86321965,24.11177839,38.58,3.00,ON,56.86322003,24.11177813,70.72,3.20,56.00,37.85,37.85
184283,2023/10/24,09:55:40.521,0.18,-2.46,127.98,56.86321969,24.11177838,38.88,3.00,ON,56.86322018,24.11177814,71.32,3.30,59.00,37.97,37.97
184383,2023/10/24,09:55:40.621,-0.19,-2.32,127.99,56.86321972,24.11177837,39.18,3.01,ON,56.86322017,24.11177814,71.32,3.30,61.00,38.30,38.30
184483,2023/10/24,09:55:40.721,-0.45,-2.07,127.97,56.86321975,24.11177831,39.48,3.00,ON,56.86322027,24.11177815,71.93,3.40,61.00,38.47,38.47
184583,2023/10/24,09:55:40.821,-0.52,-2.04,127.96,56.86321977,24.11177829,39.78,3.00,ON,56.86322027,24.11177815,71.93,3.40,63.00,38.95,38.95
184683,2023/10/24,09:55:40.920,-0.47,-2.16,127.97,56.86321980,24.11177828,40.08,3.00,ON,56.86322038,24.11177804,72.53,3.40,62.00,39.45,39.45
184783,2023/10/24,09:55:41.020,-0.44,-2.32,128.05,56.86321982,24.11177827,40.38,3.00,ON,56.86322037,24.11177805,72.53,3.50,62.00,39.76,39.76
184883,2023/10/24,09:55:41.120,-0.50,-2.45,128.07,56.86321987,24.11177816,40.68,3.00,ON,56.86322042,24.11177794,73.13,3.60,64.00,40.03,40.03
184983,2023/10/24,09:55:41.220,-0.66,-2.61,128.12,56.86321991,24.11177811,40.98,3.00,ON,56.86322041,24.11177794,73.13,3.60,65.00,40.44,40.44
185083,2023/10/24,09:55:41.320,-0.80,-2.76,128.11,56.86321993,24.11177807,41.28,2.99,ON,56.86322049,24.11177786,73.74,3.70,67.00,40.52,40.52
185183,2023/10/24,09:55:41.420,-0.88,-2.80,128.10,56.86321998,24.11177791,41.58,2.99,ON,56.86322049,24.11177786,73.74,3.70,68.00,40.71,40.71
185283,2023/10/24,09:55:41.520,-1.12,-2.98,127.98,56.86321999,24.11177787,41.88,2.97,ON,56.86322058,24.11177763,74.34,3.70,65.00,40.89,40.89
185383,2023/10/24,09:55:41.620,-1.47,-3.13,127.83,56.86321999,24.11177783,42.18,2.96,ON,56.86322059,24.11177763,74.34,3.80,65.00,41.13,41.13
185483,2023/10/24,09:55:41.720,-1.34,-3.03,127.69,56.86322001,24.11177782,42.48,2.95,ON,56.86322063,24.11177750,74.94,3.90,66.00,41.26,41.26
185583,2023/10/24,09:55:41.820,-0.83,-2.91,127.74,56.86322009,24.11177768,42.77,2.95,ON,56.86322062,24.11177750,74.94,3.80,68.00,41.65,41.65
185683,2023/10/24,09:55:41.920,-0.31,-2.84,127.92,56.86322014,24.11177767,43.07,2.96,ON,56.86322070,24.11177733,75.53,3.90,68.00,41.94,41.94
185783,2023/10/24,09:55:42.020,0.14,-2.78,128.09,56.86322019,24.11177768,43.37,2.96,ON,56.86322069,24.11177734,75.53,3.90,68.00,42.21,42.21
185883,2023/10/24,09:55:42.120,0.45,-2.93,128.21,56.86322026,24.11177760,43.66,2.97,ON,56.86322079,24.11177732,76.12,3.90,71.00,42.40,42.40
185983,2023/10/24,09:55:42.220,0.40,-3.11,128.25,56.86322030,24.11177754,43.96,2.98,ON,56.86322079,24.11177732,76.12,3.90,72.00,42.90,42.90
186083,2023/10/24,09:55:42.320,0.01,-3.26,128.25,56.86322032,24.11177748,44.26,2.99,ON,56.86322091,24.11177719,76.71,3.90,71.00,43.14,43.14
186183,2023/10/24,09:55:42.420,-0.48,-3.27,128.21,56.86322031,24.11177742,44.56,2.99,ON,56.86322091,24.11177719,76.71,3.90,71.00,43.40,43.40
186283,2023/10/24,09:55:42.520,-0.89,-3.23,128.15,56.86322035,24.11177724,44.86,2.99,ON,56.86322094,24.11177700,77.31,3.90,71.00,43.63,43.63
186383,2023/10/24,09:55:42.620,-1.13,-3.27,128.14,56.86322033,24.11177719,45.16,3.00,ON,56.86322095,24.11177700,77.31,3.90,72.00,44.00,44.00
186483,2023/10/24,09:55:42.720,-1.14,-3.31,128.22,56.86322031,24.11177717,45.46,2.99,ON,56.86322090,24.11177685,77.92,4.00,73.00,44.42,44.42
186583,2023/10/24,09:55:42.820,-0.79,-3.19,128.29,56.86322032,24.11177701,45.76,2.99,ON,56.86322090,24.11177685,77.92,4.00,74.00,44.72,44.72
186683,2023/10/24,09:55:42.919,-0.63,-3.35,128.29,56.86322030,24.11177700,46.06,2.99,ON,56.86322090,24.11177676,78.53,3.90,74.00,45.02,45.02
186783,2023/10/24,09:55:43.019,-0.81,-3.29,128.31,56.86322026,24.11177699,46.36,2.99,ON,56.86322090,24.11177676,78.53,4.00,74.00,45.42,45.42
186883,2023/10/24,09:55:43.119,-1.08,-3.00,128.32,56.86322022,24.11177700,46.66,2.99,ON,56.86322086,24.11177671,79.12,4.00,76.00,45.56,45.56
186983,2023/10/24,09:55:43.219,-1.18,-2.74,128.28,56.86322022,24.11177691,46.96,2.99,ON,56.86322086,24.11177670,79.12,4.10,75.00,45.99,45.99
187083,2023/10/24,09:55:43.319,-0.95,-2.83,128.23,56.86322020,24.11177693,47.26,3.00,ON,56.86322082,24.11177662,79.72,4.10,74.00,46.36,46.36
187182,2023/10/24,09:55:43.419,-0.80,-3.00,128.22,56.86322016,24.11177695,47.56,3.00,ON,56.86322083,24.11177662,79.72,4.20,72.00,46.63,46.63
187283,2023/10/24,09:55:43.519,-1.03,-3.03,128.23,56.86322012,24.11177690,47.86,3.00,ON,56.86322078,24.11177664,80.32,4.30,72.00,46.89,46.89
187383,2023/10/24,09:55:43.619,-1.26,-2.99,128.18,56.86322006,24.11177688,48.16,3.00,ON,56.86322078,24.11177663,80.32,4.30,71.00,47.39,47.39
187483,2023/10/24,09:55:43.719,-1.47,-2.95,128.15,56.86322000,24.11177685,48.47,3.00,ON,56.86322071,24.11177654,80.93,4.40,69.00,47.47,47.47
187583,2023/10/24,09:55:43.819,-1.75,-2.91,128.16,56.86321994,24.11177683,48.76,2.97,ON,56.86322071,24.11177654,80.93,4.50,68.00,47.96,47.96
187683,2023/10/24,09:55:43.918,-2.09,-3.19,128.17,56.86321992,24.11177668,49.06,2.83,ON,56.86322058,24.11177646,81.53,4.50,67.00,48.21,48.21
187783,2023/10/24,09:55:44.018,-2.37,-3.58,128.17,56.86321985,24.11177662,49.33,2.64,ON,56.86322058,24.11177646,81.53,4.60,66.00,48.51,48.51
187883,2023/10/24,09:55:44.118,-2.52,-3.80,128.18,56.86321979,24.11177657,49.59,2.42,ON,56.86322045,24.11177635,82.12,4.70,66.00,49.02,49.02
187983,2023/10/24,09:55:44.218,-2.53,-3.89,128.18,56.86321975,24.11177641,49.81,2.15,ON,56.86322045,24.11177635,82.12,4.70,65.00,49.22,49.22
188083,2023/10/24,09:55:44.318,-2.51,-3.95,128.15,56.86321969,24.11177638,50.02,1.87,ON,56.86322037,24.11177616,82.64,4.70,62.00,49.54,49.54
188183,2023/10/24,09:55:44.418,-2.51,-3.80,128.17,56.86321961,24.11177636,50.19,1.57,ON,56.86322037,24.11177616,82.64,4.80,61.00,49.49,49.49
188283,2023/10/24,09:55:44.518,-2.45,-3.52,128.14,56.86321954,24.11177634,50.33,1.28,ON,56.86322023,24.11177606,83.04,4.90,58.00,49.67,49.67
188383,2023/10/24,09:55:44.618,-2.40,-3.34,128.13,56.86321952,24.11177618,50.44,0.99,ON,56.86322023,24.11177606,83.04,4.90,57.00,49.97,49.97
188483,2023/10/24,09:55:44.718,-2.41,-3.31,128.11,56.86321947,24.11177614,50.52,0.73,ON,56.86322010,24.11177598,83.33,4.90,56.00,50.14,50.14
188583,2023/10/24,09:55:44.818,-2.44,-3.30,128.14,56.86321940,24.11177611,50.57,0.49,ON,56.86322010,24.11177599,83.33,4.90,56.00,50.59,50.59
188683,2023/10/24,09:55:44.918,-2.48,-3.17,128.16,56.86321936,24.11177603,50.61,0.32,ON,56.86322004,24.11177585,83.49,4.80,59.00,50.97,50.97
188783,2023/10/24,09:55:45.018,-3.27,-2.27,132.00,56.86321930,24.11177599,50.63,0.15,ON,56.86321977,24.11177591,83.49,4.80,59.00,51.16,51.16
188883,2023/10/24,09:55:45.118,-4.52,-1.90,137.80,56.86321926,24.11177593,50.62,0.08,ON,56.86321929,24.11177586,83.57,4.80,56.00,51.22,51.22
188983,2023/10/24,09:55:45.218,-4.22,-2.51,141.63,56.86321929,24.11177587,50.61,0.14,ON,56.86321902,24.11177583,83.57,4.80,56.00,51.17,51.17
189083,2023/10/24,09:55:45.318,-2.51,-2.91,144.00,56.86321938,24.11177576,50.58,0.18,ON,56.86321960,24.11177555,83.59,4.90,61.00,51.05,51.05
189183,2023/10/24,09:55:45.418,-1.19,-2.94,145.25,56.86321942,24.11177577,50.57,0.20,ON,56.86321951,24.11177552,83.59,4.90,61.00,51.03,51.03
189283,2023/10/24,09:55:45.518,-1.11,-2.48,145.85,56.86321945,24.11177570,50.54,0.21,ON,56.86321992,24.11177557,83.55,4.90,70.00,50.96,50.96
189383,2023/10/24,09:55:45.618,-2.04,-1.65,146.00,56.86321953,24.11177547,50.52,0.22,ON,56.86321991,24.11177557,83.55,5.00,68.00,50.91,50.91
189483,2023/10/24,09:55:45.718,-3.24,-1.61,146.03,56.86321955,24.11177529,50.49,0.21,ON,56.86322000,24.11177542,83.50,5.00,74.00,50.83,50.83
189583,2023/10/24,09:55:45.818,-4.23,-2.57,146.08,56.86321957,24.11177508,50.47,0.20,ON,56.86321999,24.11177542,83.50,5.00,73.00,50.76,50.76
189683,2023/10/24,09:55:45.918,-4.63,-4.31,146.12,56.86321961,24.11177490,50.45,0.18,ON,56.86322004,24.11177497,83.47,5.10,72.00,50.78,50.78
189783,2023/10/24,09:55:46.018,-4.55,-6.40,146.29,56.86321961,24.11177469,50.43,0.18,ON,56.86322003,24.11177497,83.47,5.10,71.00,50.78,50.78
189883,2023/10/24,09:55:46.118,-4.18,-7.70,146.42,56.86321960,24.11177464,50.41,0.22,ON,56.86322011,24.11177455,83.46,5.10,66.00,50.89,50.89
189983,2023/10/24,09:55:46.218,-3.57,-8.28,146.47,56.86321955,24.11177470,50.40,0.29,ON,56.86322011,24.11177455,83.46,5.10,65.00,50.93,50.93
190083,2023/10/24,09:55:46.318,-2.91,-8.82,146.45,56.86321947,24.11177479,50.38,0.37,ON,56.86322014,24.11177440,83.45,5.20,56.00,50.96,50.96
190183,2023/10/24,09:55:46.418,-2.68,-10.02,146.41,56.86321929,24.11177508,50.37,0.46,ON,56.86322014,24.11177440,83.45,5.20,56.00,50.94,50.94
190283,2023/10/24,09:55:46.518,-2.74,-11.64,146.37,56.86321905,24.11177546,50.36,0.58,ON,56.86321995,24.11177470,83.43,5.30,45.00,50.92,50.92
190383,2023/10/24,09:55:46.618,-2.73,-13.46,146.36,56.86321868,24.11177600,50.35,0.72,ON,56.86321995,24.11177470,83.43,5.40,45.00,50.88,50.88
190483,2023/10/24,09:55:46.718,-2.62,-15.55,146.35,56.86321826,24.11177658,50.34,0.89,ON,56.86321945,24.11177544,83.42,5.50,42.00,50.78,50.78
190583,2023/10/24,09:55:46.818,-2.39,-17.61,146.45,56.86321762,24.11177748,50.32,1.10,ON,56.86321944,24.11177544,83.42,5.50,43.00,50.69,50.69
190683,2023/10/24,09:55:46.917,-2.30,-19.30,146.46,56.86321684,24.11177856,50.31,1.36,ON,56.86321856,24.11177669,83.41,5.50,35.00,50.72,50.72
190783,2023/10/24,09:55:47.017,-2.35,-19.25,146.54,56.86321582,24.11177989,50.30,1.64,ON,56.86321855,24.11177669,83.41,5.50,35.00,50.64,50.64
190883,2023/10/24,09:55:47.117,-2.53,-14.64,146.48,56.86321464,24.11178148,50.29,1.93,ON,56.86321699,24.11177876,83.40,5.50,15.00,50.71,50.71
190983,2023/10/24,09:55:47.217,-2.75,-7.97,146.13,56.86321324,24.11178337,50.28,2.05,ON,56.86321702,24.11177876,83.40,5.40,17.00,50.71,50.71
191083,2023/10/24,09:55:47.317,-2.72,-5.56,145.75,56.86321188,24.11178523,50.28,2.05,ON,56.86321486,24.11178158,83.36,5.40,17.00,50.64,50.64
191183,2023/10/24,09:55:47.417,-2.43,-6.34,145.65,56.86321046,24.11178712,50.27,2.05,ON,56.86321487,24.11178158,83.36,5.50,19.00,50.64,50.64
191283,2023/10/24,09:55:47.517,-1.93,-8.16,145.70,56.86320910,24.11178905,50.27,2.09,ON,56.86321223,24.11178489,83.30,5.40,62.00,50.57,50.57
191383,2023/10/24,09:55:47.617,-1.45,-9.64,145.87,56.86320763,24.11179111,50.26,2.18,ON,56.86321221,24.11178488,83.30,5.50,64.00,50.62,50.62
191483,2023/10/24,09:55:47.717,-1.10,-10.18,146.09,56.86320618,24.11179305,50.26,2.28,ON,56.86320938,24.11178877,83.31,5.50,72.00,50.64,50.64
191583,2023/10/24,09:55:47.817,-1.00,-9.82,146.34,56.86320458,24.11179520,50.25,2.38,ON,56.86320937,24.11178877,83.31,5.50,72.00,50.60,50.60
191683,2023/10/24,09:55:47.917,-0.97,-8.91,146.44,56.86320298,24.11179731,50.24,2.46,ON,56.86320635,24.11179297,83.30,5.50,60.00,50.61,50.61
191783,2023/10/24,09:55:48.017,-1.24,-8.27,146.45,56.86320119,24.11179963,50.23,2.53,ON,56.86320635,24.11179297,83.30,5.50,60.00,50.49,50.49
191883,2023/10/24,09:55:48.117,-1.85,-8.09,146.46,56.86319951,24.11180160,50.23,2.60,ON,56.86320303,24.11179744,83.28,5.50,62.00,50.44,50.44
191983,2023/10/24,09:55:48.217,-2.22,-8.26,146.45,56.86319758,24.11180403,50.22,2.66,ON,56.86320303,24.11179744,83.28,5.50,62.00,50.50,50.50
192083,2023/10/24,09:55:48.317,-2.34,-8.40,146.30,56.86319569,24.11180641,50.22,2.73,ON,56.86319942,24.11180206,83.26,5.50,68.00,50.39,50.39
192183,2023/10/24,09:55:48.417,-2.43,-8.61,146.17,56.86319362,24.11180891,50.21,2.79,ON,56.86319943,24.11180207,83.26,5.50,68.00,50.43,50.43
192283,2023/10/24,09:55:48.517,-2.53,-8.83,146.00,56.86319162,24.11181143,50.21,2.86,ON,56.86319557,24.11180694,83.24,5.50,67.00,50.44,50.44
192383,2023/10/24,09:55:48.617,-2.49,-9.12,146.01,56.86318946,24.11181415,50.21,2.93,ON,56.86319557,24.11180694,83.24,5.60,67.00,50.38,50.38
192483,2023/10/24,09:55:48.717,-2.42,-9.34,145.98,56.86318735,24.11181681,50.20,3.01,ON,56.86319151,24.11181203,83.23,5.60,67.00,50.43,50.43
192583,2023/10/24,09:55:48.817,-2.29,-9.53,145.99,56.86318508,24.11181963,50.20,3.09,ON,56.86319151,24.11181203,83.23,5.70,67.00,50.46,50.46
192683,2023/10/24,09:55:48.916,-2.22,-9.41,146.01,56.86318285,24.11182244,50.19,3.17,ON,56.86318725,24.11181737,83.23,5.80,65.00,50.38,50.38
192783,2023/10/24,09:55:49.016,-2.17,-9.34,146.00,56.86318046,24.11182546,50.19,3.24,ON,56.86318725,24.11181737,83.23,5.80,65.00,50.35,50.35
192883,2023/10/24,09:55:49.116,-2.13,-9.13,145.97,56.86317812,24.11182836,50.18,3.31,ON,56.86318269,24.11182304,83.23,5.90,61.00,50.40,50.40
192983,2023/10/24,09:55:49.216,-2.21,-9.18,145.91,56.86317561,24.11183148,50.18,3.38,ON,56.86318270,24.11182305,83.23,6.00,60.00,50.38,50.38
193083,2023/10/24,09:55:49.316,-2.49,-9.17,145.85,56.86317316,24.11183452,50.17,3.45,ON,56.86317795,24.11182889,83.21,6.00,64.00,50.36,50.36
193183,2023/10/24,09:55:49.416,-2.60,-9.37,145.87,56.86317053,24.11183777,50.17,3.52,ON,56.86317795,24.11182888,83.21,6.10,66.00,50.38,50.38
193283,2023/10/24,09:55:49.516,-2.56,-9.43,145.94,56.86316797,24.11184084,50.17,3.59,ON,56.86317295,24.11183500,83.20,6.20,63.00,50.40,50.40
193383,2023/10/24,09:55:49.616,-2.29,-9.44,146.02,56.86316524,24.11184422,50.16,3.66,ON,56.86317294,24.11183500,83.20,6.30,63.00,50.42,50.42
193483,2023/10/24,09:55:49.716,-2.18,-9.30,146.03,56.86316259,24.11184749,50.16,3.73,ON,56.86316777,24.11184133,83.20,6.40,62.00,50.43,50.43
193583,2023/10/24,09:55:49.816,-2.22,-9.33,146.02,56.86315977,24.11185086,50.15,3.79,ON,56.86316777,24.11184133,83.20,6.50,62.00,50.39,50.39
193683,2023/10/24,09:55:49.916,-2.34,-9.34,145.97,56.86315702,24.11185423,50.15,3.86,ON,56.86316236,24.11184799,83.19,6.60,66.00,50.34,50.34
193783,2023/10/24,09:55:50.016,-2.24,-9.14,145.91,56.86315409,24.11185783,50.15,3.93,ON,56.86316236,24.11184799,83.19,6.70,66.00,50.25,50.25
193883,2023/10/24,09:55:50.116,-2.20,-8.93,145.76,56.86315126,24.11186133,50.15,3.99,ON,56.86315679,24.11185481,83.18,6.70,64.00,50.25,50.25
193983,2023/10/24,09:55:50.216,-2.23,-9.06,145.73,56.86314825,24.11186496,50.14,4.04,ON,56.86315680,24.11185481,83.18,6.80,65.00,50.24,50.24
194083,2023/10/24,09:55:50.316,-2.42,-9.04,145.70,56.86314533,24.11186858,50.15,4.10,ON,56.86315104,24.11186188,83.18,6.90,67.00,50.24,50.24
194183,2023/10/24,09:55:50.416,-2.63,-9.26,145.72,56.86314224,24.11187245,50.15,4.16,ON,56.86315104,24.11186187,83.18,6.90,68.00,50.24,50.24
194283,2023/10/24,09:55:50.516,-2.47,-9.49,145.77,56.86313928,24.11187614,50.15,4.22,ON,56.86314508,24.11186925,83.17,7.00,68.00,50.22,50.22
194383,2023/10/24,09:55:50.616,-1.94,-9.74,145.80,56.86313611,24.11188015,50.14,4.29,ON,56.86314508,24.11186925,83.17,7.00,69.00,50.25,50.25
194483,2023/10/24,09:55:50.716,-1.53,-9.52,145.78,56.86313305,24.11188403,50.14,4.36,ON,56.86313903,24.11187685,83.18,7.10,67.00,50.23,50.23
194583,2023/10/24,09:55:50.816,-1.48,-9.41,145.82,56.86312977,24.11188817,50.14,4.42,ON,56.86313902,24.11187685,83.18,7.10,67.00,50.21,50.21
194683,2023/10/24,09:55:50.915,-1.59,-9.40,145.89,56.86312664,24.11189201,50.14,4.47,ON,56.86313277,24.11188471,83.17,7.20,68.00,50.23,50.23
194783,2023/10/24,09:55:51.015,-1.74,-9.53,145.93,56.86312327,24.11189620,50.13,4.53,ON,56.86313277,24.11188471,83.17,7.20,68.00,50.16,50.16
194883,2023/10/24,09:55:51.115,-2.04,-9.38,145.93,56.86312001,24.11190022,50.12,4.60,ON,56.86312632,24.11189279,83.16,7.30,69.00,50.14,50.14
194983,2023/10/24,09:55:51.215,-2.27,-9.19,145.96,56.86311656,24.11190438,50.12,4.66,ON,56.86312632,24.11189279,83.16,7.40,70.00,50.13,50.13
195083,2023/10/24,09:55:51.315,-2.35,-8.70,146.01,56.86311321,24.11190851,50.11,4.72,ON,56.86311964,24.11190098,83.15,7.40,69.00,50.11,50.11
195183,2023/10/24,09:55:51.415,-2.19,-8.59,145.98,56.86310964,24.11191292,50.11,4.76,ON,56.86311964,24.11190098,83.15,7.40,70.00,50.11,50.11
195283,2023/10/24,09:55:51.515,-1.93,-8.67,145.92,56.86310623,24.11191716,50.11,4.80,ON,56.86311273,24.11190946,83.15,7.40,71.00,50.11,50.11
195383,2023/10/24,09:55:51.615,-1.65,-9.19,145.91,56.86310262,24.11192156,50.11,4.84,ON,56.86311274,24.11190946,83.15,7.50,72.00,50.05,50.05
195483,2023/10/24,09:55:51.715,-1.51,-9.38,145.90,56.86309913,24.11192590,50.11,4.90,ON,56.86310575,24.11191809,83.14,7.50,76.00,50.00,50.00
195583,2023/10/24,09:55:51.815,-1.49,-9.63,145.94,56.86309540,24.11193054,50.11,4.95,ON,56.86310575,24.11191809,83.14,7.50,77.00,49.97,49.97
195683,2023/10/24,09:55:51.915,-1.48,-8.80,146.03,56.86309181,24.11193497,50.11,5.02,ON,56.86309865,24.11192686,83.14,7.60,75.00,49.97,49.97
195783,2023/10/24,09:55:52.014,-1.47,-5.33,146.07,56.86308801,24.11193969,50.10,5.05,ON,56.86309864,24.11192686,83.14,7.60,75.00,49.92,49.92
195883,2023/10/24,09:55:52.114,-1.70,-1.67,145.88,56.86308440,24.11194416,50.10,5.00,ON,56.86309141,24.11193584,83.14,7.70,72.00,50.00,50.00
195983,2023/10/24,09:55:52.215,-1.98,1.45,145.63,56.86308067,24.11194876,50.10,4.88,ON,56.86309142,24.11193584,83.14,7.70,72.00,50.14,50.14
196083,2023/10/24,09:55:52.314,-2.25,4.11,145.45,56.86307725,24.11195288,50.10,4.72,ON,56.86308415,24.11194473,83.09,7.70,92.00,50.17,50.17
196183,2023/10/24,09:55:52.415,-2.46,6.18,145.37,56.86307377,24.11195717,50.10,4.52,ON,56.86308415,24.11194473,83.09,7.70,92.00,50.38,50.38
196283,2023/10/24,09:55:52.515,-2.59,7.95,145.36,56.86307062,24.11196105,50.10,4.30,ON,56.86307708,24.11195336,83.06,7.70,107.00,50.99,50.99
196383,2023/10/24,09:55:52.614,-2.52,9.59,145.36,56.86306757,24.11196466,50.10,4.04,ON,56.86307708,24.11195336,83.06,7.70,108.00,51.02,51.02
196483,2023/10/24,09:55:52.715,-2.53,11.07,145.37,56.86306480,24.11196806,50.10,3.76,ON,56.86307057,24.11196131,83.05,7.70,114.00,51.25,51.25
196583,2023/10/24,09:55:52.814,-2.60,12.24,145.36,56.86306211,24.11197137,50.10,3.46,ON,56.86307058,24.11196131,83.05,7.60,113.00,52.11,52.11
196683,2023/10/24,09:55:52.914,-2.59,13.08,145.38,56.86305977,24.11197425,50.10,3.15,ON,56.86306479,24.11196845,83.02,7.60,117.00,52.11,52.11
196783,2023/10/24,09:55:53.014,-2.19,13.63,145.42,56.86305767,24.11197676,50.09,2.83,ON,56.86306479,24.11196845,83.02,7.50,116.00,52.11,52.11
196883,2023/10/24,09:55:53.114,-1.78,14.30,145.52,56.86305579,24.11197909,50.09,2.52,ON,56.86305982,24.11197455,83.01,7.40,118.00,52.11,52.11
196983,2023/10/24,09:55:53.214,-1.60,14.87,145.64,56.86305405,24.11198124,50.08,2.18,ON,56.86305981,24.11197455,83.01,7.30,117.00,55.83,55.83
197083,2023/10/24,09:55:53.314,-1.62,15.22,145.75,56.86305269,24.11198287,50.07,1.85,ON,56.86305579,24.11197961,82.99,7.20,118.00,55.84,55.84
197183,2023/10/24,09:55:53.414,-1.74,15.11,145.82,56.86305143,24.11198435,50.07,1.51,ON,56.86305579,24.11197961,82.99,7.00,117.00,55.95,55.95
197283,2023/10/24,09:55:53.514,-1.89,14.62,145.82,56.86305045,24.11198546,50.06,1.19,ON,56.86305281,24.11198331,82.96,6.80,116.00,56.00,56.00
197383,2023/10/24,09:55:53.614,-2.06,13.60,145.84,56.86304966,24.11198633,50.05,0.88,ON,56.86305281,24.11198331,82.96,6.60,114.00,56.00,56.00
197483,2023/10/24,09:55:53.714,-2.32,12.09,145.83,56.86304916,24.11198678,50.04,0.61,ON,56.86305074,24.11198570,82.95,6.50,113.00,56.08,56.08
197583,2023/10/24,09:55:53.814,-3.19,9.58,141.72,56.86304880,24.11198711,50.03,0.37,ON,56.86305103,24.11198577,82.95,6.30,111.00,56.04,56.04
197683,2023/10/24,09:55:53.914,-3.36,6.72,134.31,56.86304862,24.11198724,50.03,0.19,ON,56.86305042,24.11198698,82.95,6.10,106.00,56.08,56.08
197783,2023/10/24,09:55:54.014,-4.09,4.93,126.07,56.86304861,24.11198711,50.02,0.09,ON,56.86305100,24.11198686,82.95,5.90,105.00,56.09,56.09
197883,2023/10/24,09:55:54.114,-5.52,3.65,117.48,56.86304862,24.11198695,50.02,0.13,ON,56.86305031,24.11198679,82.97,5.70,92.00,56.09,56.09
197983,2023/10/24,09:55:54.214,-6.65,2.13,108.73,56.86304873,24.11198665,50.02,0.24,ON,56.86305088,24.11198633,82.97,5.50,92.00,50.66,50.66
198083,2023/10/24,09:55:54.314,-6.39,0.37,99.98,56.86304895,24.11198629,50.02,0.36,ON,56.86305021,24.11198590,82.98,5.30,71.00,50.79,50.79
198183,2023/10/24,09:55:54.414,-4.99,-1.16,91.11,56.86304935,24.11198577,50.02,0.46,ON,56.86305069,24.11198513,82.98,5.10,72.00,50.68,50.68
198283,2023/10/24,09:55:54.514,-3.19,-2.12,82.18,56.86304974,24.11198528,50.02,0.53,ON,56.86305053,24.11198465,83.00,4.90,53.00,50.64,50.64
198383,2023/10/24,09:55:54.614,-1.67,-2.62,73.47,56.86305018,24.11198471,50.02,0.57,ON,56.86305085,24.11198368,83.00,4.80,54.00,50.44,50.44
198483,2023/10/24,09:55:54.714,-0.82,-2.86,66.79,56.86305066,24.11198411,50.02,0.59,ON,56.86305103,24.11198339,82.99,4.60,45.00,50.46,50.46
198583,2023/10/24,09:55:54.814,-0.54,-3.05,62.59,56.86305117,24.11198347,50.02,0.62,ON,56.86305112,24.11198287,82.99,4.50,47.00,50.47,50.47
198683,2023/10/24,09:55:54.913,-0.18,-3.12,60.33,56.86305168,24.11198283,50.01,0.66,ON,56.86305166,24.11198299,82.98,4.50,21.00,50.49,50.49
198783,2023/10/24,09:55:55.013,0.56,-3.04,59.25,56.86305226,24.11198209,50.01,0.68,ON,56.86305168,24.11198285,82.98,4.40,24.00,50.64,50.64
198883,2023/10/24,09:55:55.113,1.70,-3.00,58.77,56.86305291,24.11198128,50.01,0.70,ON,56.86305272,24.11198186,82.98,4.40,21.00,50.55,50.55
198983,2023/10/24,09:55:55.213,2.33,-3.05,58.60,56.86305349,24.11198051,50.01,0.68,ON,56.86305272,24.11198183,82.98,4.30,25.00,50.47,50.47
199083,2023/10/24,09:55:55.313,0.39,-3.15,58.64,56.86305402,24.11197977,50.00,0.67,ON,56.86305389,24.11198023,82.96,4.20,25.00,50.40,50.40
199183,2023/10/24,09:55:55.413,0.44,-3.20,58.63,56.86305472,24.11197871,50.00,0.71,ON,56.86305389,24.11198023,82.96,4.20,28.00,50.26,50.26
199283,2023/10/24,09:55:55.513,2.28,-3.35,58.70,56.86305532,24.11197786,50.00,0.73,ON,56.86305508,24.11197847,82.97,4.20,29.00,50.28,50.28
199383,2023/10/24,09:55:55.613,3.96,-3.63,58.75,56.86305595,24.11197696,50.00,0.70,ON,56.86305508,24.11197847,82.97,4.10,32.00,50.29,50.29
199483,2023/10/24,09:55:55.713,4.73,-3.64,58.87,56.86305650,24.11197615,50.00,0.63,ON,56.86305631,24.11197659,82.95,4.10,36.00,50.32,50.32
199583,2023/10/24,09:55:55.813,4.69,-3.50,58.95,56.86305716,24.11197504,50.00,0.57,ON,56.86305631,24.11197660,82.95,4.00,38.00,50.33,50.33
199683,2023/10/24,09:55:55.912,4.46,-3.56,58.95,56.86305763,24.11197433,50.00,0.52,ON,56.86305750,24.11197468,82.94,4.00,33.00,50.34,50.34
199783,2023/10/24,09:55:56.012,4.20,-3.66,58.92,56.86305809,24.11197364,50.00,0.47,ON,56.86305750,24.11197468,82.94,4.00,35.00,50.27,50.27
199883,2023/10/24,09:55:56.112,4.09,-3.87,58.84,56.86305855,24.11197287,50.00,0.43,ON,56.86305848,24.11197302,82.94,4.00,33.00,50.24,50.24
199983,2023/10/24,09:55:56.212,3.89,-3.93,58.79,56.86305894,24.11197226,50.00,0.39,ON,56.86305848,24.11197301,82.94,4.00,34.00,50.21,50.21
200083,2023/10/24,09:55:56.312,3.47,-3.78,58.75,56.86305929,24.11197172,50.00,0.36,ON,56.86305931,24.11197157,82.95,4.00,34.00,50.11,50.11
200183,2023/10/24,09:55:56.412,3.27,-3.70,58.73,56.86305963,24.11197118,50.00,0.33,ON,56.86305931,24.11197157,82.95,4.00,35.00,50.15,50.15
200283,2023/10/24,09:55:56.512,3.60,-3.68,58.69,56.86306000,24.11197037,50.00,0.31,ON,56.86306001,24.11197032,82.95,4.00,39.00,50.19,50.19
200383,2023/10/24,09:55:56.612,3.90,-3.81,58.65,56.86306029,24.11196987,50.00,0.28,ON,56.86306001,24.11197031,82.95,3.90,39.00,50.40,50.40
200483,2023/10/24,09:55:56.712,4.09,-4.35,58.58,56.86306054,24.11196942,49.99,0.25,ON,56.86306064,24.11196914,82.96,3.90,39.00,50.44,50.44
200583,2023/10/24,09:55:56.812,3.87,-5.56,58.52,56.86306080,24.11196869,49.99,0.21,ON,56.86306064,24.11196913,82.96,3.90,39.00,50.47,50.47
200683,2023/10/24,09:55:56.912,3.72,-7.19,58.46,56.86306100,24.11196835,49.99,0.19,ON,56.86306116,24.11196807,82.95,3.90,36.00,50.38,50.38
200783,2023/10/24,09:55:57.012,3.71,-8.09,58.49,56.86306121,24.11196811,49.99,0.20,ON,56.86306116,24.11196807,82.95,3.90,37.00,50.27,50.27
200883,2023/10/24,09:55:57.112,3.73,-8.54,58.50,56.86306143,24.11196801,49.99,0.25,ON,56.86306162,24.11196724,82.97,3.80,36.00,50.13,50.13
200983,2023/10/24,09:55:57.212,3.59,-9.17,58.48,56.86306169,24.11196776,49.98,0.32,ON,56.86306162,24.11196724,82.97,3.80,37.00,50.14,50.14
201083,2023/10/24,09:55:57.312,3.24,-10.15,58.39,56.86306193,24.11196795,49.98,0.41,ON,56.86306207,24.11196684,82.97,3.80,35.00,50.13,50.13
201183,2023/10/24,09:55:57.412,2.77,-11.52,58.33,56.86306222,24.11196834,49.98,0.52,ON,56.86306207,24.11196684,82.97,3.80,36.00,50.11,50.11
201283,2023/10/24,09:55:57.512,2.69,-13.26,58.24,56.86306256,24.11196875,49.98,0.66,ON,56.86306255,24.11196709,82.98,4.00,36.00,50.10,50.10
201383,2023/10/24,09:55:57.612,2.96,-15.25,58.18,56.86306297,24.11196955,49.97,0.83,ON,56.86306255,24.11196708,82.98,4.00,37.00,49.99,49.99
201483,2023/10/24,09:55:57.712,3.21,-17.19,58.11,56.86306343,24.11197056,49.97,1.04,ON,56.86306321,24.11196805,82.99,4.10,35.00,49.92,49.92
201583,2023/10/24,09:55:57.812,3.33,-18.83,58.09,56.86306401,24.11197197,49.97,1.27,ON,56.86306321,24.11196805,82.99,4.10,36.00,49.92,49.92
201683,2023/10/24,09:55:57.911,3.29,-19.95,58.09,56.86306469,24.11197340,49.96,1.53,ON,56.86306414,24.11196998,83.01,4.20,34.00,49.89,49.89
201783,2023/10/24,09:55:58.011,3.09,-18.72,58.28,56.86306549,24.11197557,49.96,1.81,ON,56.86306414,24.11197001,83.01,4.30,35.00,49.91,49.91
